[
  {
    "id": "dodger-stadium",
    "name": "Dodger Stadium",
    "address": "1000 Vin Scully Ave, Los Angeles, CA 90012",
    "neighborhood": "downtown",
    "lat": 34.0739,
    "lng": -118.2400,
    "capacity": 56000,
    "parkingInfo": "On-site parking available for $30-$50; lots open 2 hours before first pitch.",
    "transitInfo": "Dodger Stadium Express shuttle from Union Station (free with game ticket); Metro B/D Line to Union Station."
  },
  {
    "id": "sofi-stadium",
    "name": "SoFi Stadium",
    "address": "1001 Stadium Dr, Inglewood, CA 90301",
    "neighborhood": "south-la",
    "lat": 33.9535,
    "lng": -118.3392,
    "capacity": 70240,
    "parkingInfo": "Prepaid parking $60-$100 at Hollywood Park; rideshare drop-off on Prairie Ave.",
    "transitInfo": "Metro C Line to Downtown Inglewood station, then shuttle to stadium on game days."
  },
  {
    "id": "crypto-arena",
    "name": "Crypto.com Arena",
    "address": "1111 S Figueroa St, Los Angeles, CA 90015",
    "neighborhood": "downtown",
    "lat": 34.0430,
    "lng": -118.2673,
    "capacity": 19068,
    "parkingInfo": "Multiple lots surrounding LA Live; expect $20-$40. Book via ParkWhiz for discounts.",
    "transitInfo": "Metro A/E Line to Pico station (one block away); Metro B/D to 7th/Metro then walk 10 min."
  },
  {
    "id": "bmo-stadium",
    "name": "BMO Stadium",
    "address": "3939 S Figueroa St, Los Angeles, CA 90037",
    "neighborhood": "south-la",
    "lat": 34.0128,
    "lng": -118.2842,
    "capacity": 22000,
    "parkingInfo": "Limited on-site parking $40; street parking and private lots available on Figueroa.",
    "transitInfo": "Metro E Line to Expo/Vermont station then walk 15 min; DASH bus F from downtown."
  },
  {
    "id": "dignity-health-sports-park",
    "name": "Dignity Health Sports Park",
    "address": "18400 S Avalon Blvd, Carson, CA 90746",
    "neighborhood": "south-bay",
    "lat": 33.8644,
    "lng": -118.2611,
    "capacity": 27000,
    "parkingInfo": "Free general parking in surrounding lots; VIP/premium parking $25.",
    "transitInfo": "Metro C Line to Avalon station, then bus 246 southbound to Victoria St; limited transit access."
  },
  {
    "id": "intuit-dome",
    "name": "Intuit Dome",
    "address": "3930 W Century Blvd, Inglewood, CA 90303",
    "neighborhood": "south-la",
    "lat": 33.9458,
    "lng": -118.3418,
    "capacity": 18000,
    "parkingInfo": "Prepaid parking required ($30-$60); adjacent structures and rideshare plaza available.",
    "transitInfo": "Metro C Line to Downtown Inglewood station, then shuttle or 15-min walk via Century Blvd."
  },
  {
    "id": "la-memorial-coliseum",
    "name": "Los Angeles Memorial Coliseum",
    "address": "3911 S Figueroa St, Los Angeles, CA 90037",
    "neighborhood": "south-la",
    "lat": 34.0141,
    "lng": -118.2879,
    "capacity": 77500,
    "parkingInfo": "Lots around Exposition Park $20-$40; arrive early as lots fill quickly on game days.",
    "transitInfo": "Metro E Line to Expo Park/USC station (adjacent); multiple Metro bus lines serve Figueroa."
  },
  {
    "id": "rose-bowl",
    "name": "Rose Bowl Stadium",
    "address": "1001 Rose Bowl Dr, Pasadena, CA 91103",
    "neighborhood": "san-gabriel-valley",
    "lat": 34.1613,
    "lng": -118.1676,
    "capacity": 88565,
    "parkingInfo": "On-site parking $25-$50; free remote lots with shuttle service on major event days.",
    "transitInfo": "Metro A Line to Memorial Park station, then Pasadena Transit or shuttle to Rose Bowl."
  },
  {
    "id": "pauley-pavilion",
    "name": "Pauley Pavilion",
    "address": "555 Westwood Plaza, Los Angeles, CA 90095",
    "neighborhood": "westside",
    "lat": 34.0702,
    "lng": -118.4468,
    "capacity": 13800,
    "parkingInfo": "UCLA campus parking structures $15-$20; Lot 4 closest to venue.",
    "transitInfo": "Metro B/D Line to Westwood/UCLA station; Big Blue Bus lines 1, 2, 8 to Westwood Blvd."
  },
  {
    "id": "galen-center",
    "name": "Galen Center",
    "address": "3400 S Figueroa St, Los Angeles, CA 90089",
    "neighborhood": "south-la",
    "lat": 34.0223,
    "lng": -118.2860,
    "capacity": 10258,
    "parkingInfo": "USC parking structures on Jefferson Blvd ($15-$20); street metered parking on Figueroa.",
    "transitInfo": "Metro E Line to Expo Park/USC station, walk 5 min north; DASH F bus from downtown."
  },
  {
    "id": "firestone-fieldhouse",
    "name": "Firestone Fieldhouse",
    "address": "24255 Pacific Coast Hwy, Malibu, CA 90263",
    "neighborhood": "westside",
    "lat": 34.0358,
    "lng": -118.7098,
    "capacity": 3104,
    "parkingInfo": "Free parking in campus lots; overflow parking along PCH on busy nights.",
    "transitInfo": "Limited transit; Metro 534 bus along PCH from Santa Monica. Driving recommended."
  },
  {
    "id": "gersten-pavilion",
    "name": "Gersten Pavilion",
    "address": "1 LMU Dr, Los Angeles, CA 90045",
    "neighborhood": "westside",
    "lat": 33.9709,
    "lng": -118.4175,
    "capacity": 4156,
    "parkingInfo": "Free campus parking on game days in Lots H and F; enter from Lincoln Blvd.",
    "transitInfo": "Metro Bus 115 along Lincoln Blvd, or Culver City Bus 1 to LMU campus."
  },
  {
    "id": "matadome",
    "name": "The Matadome (Premier America Credit Union Arena)",
    "address": "18111 Nordhoff St, Northridge, CA 91330",
    "neighborhood": "san-fernando-valley",
    "lat": 34.2367,
    "lng": -118.5286,
    "capacity": 2600,
    "parkingInfo": "CSUN parking structures B5 and G3 ($10); free street parking on Zelzah Ave after 6 PM.",
    "transitInfo": "Metro G Line (Orange) to Nordhoff station, then CSUN shuttle or 15-min walk east."
  },
  {
    "id": "walter-pyramid",
    "name": "Walter Pyramid",
    "address": "6300 State University Dr, Long Beach, CA 90815",
    "neighborhood": "gateway-cities",
    "lat": 33.7872,
    "lng": -118.1131,
    "capacity": 5000,
    "parkingInfo": "Campus parking lots $10 on event days; Lot G12 closest to Pyramid.",
    "transitInfo": "Metro A Line to Downtown Long Beach, then Long Beach Transit 91/93 to campus."
  },
  {
    "id": "elac-stadium",
    "name": "ELAC Weingart Stadium",
    "address": "1301 Avenida Cesar Chavez, Monterey Park, CA 91754",
    "neighborhood": "east-la",
    "lat": 34.0233,
    "lng": -118.1614,
    "capacity": 6000,
    "parkingInfo": "Free parking in campus lots; additional overflow parking on Collegian Ave.",
    "transitInfo": "Metro B/D Line to Union Station, then Metro 70 bus eastbound to Atlantic/Cesar Chavez."
  },
  {
    "id": "lacc-athletic-field",
    "name": "LACC Athletic Field & Gym",
    "address": "855 N Vermont Ave, Los Angeles, CA 90029",
    "neighborhood": "downtown",
    "lat": 34.0879,
    "lng": -118.2917,
    "capacity": 2000,
    "parkingInfo": "Free campus parking in Lot C off Monroe St; metered street parking on Vermont.",
    "transitInfo": "Metro B Line to Vermont/Santa Monica station (2 blocks); Metro buses 204, 754 on Vermont."
  },
  {
    "id": "lavc-athletic-complex",
    "name": "LAVC Monarch Gym & Athletic Fields",
    "address": "5800 Fulton Ave, Valley Glen, CA 91401",
    "neighborhood": "san-fernando-valley",
    "lat": 34.1867,
    "lng": -118.4211,
    "capacity": 1500,
    "parkingInfo": "Free campus parking in Lot 1 off Fulton Ave; street parking available on Burbank Blvd.",
    "transitInfo": "Metro G Line (Orange) to Laurel Canyon station, then walk or bus south on Laurel Canyon Blvd."
  },
  {
    "id": "el-camino-stadium",
    "name": "El Camino College Murdock Stadium",
    "address": "16007 Crenshaw Blvd, Torrance, CA 90506",
    "neighborhood": "south-bay",
    "lat": 33.8668,
    "lng": -118.3363,
    "capacity": 8000,
    "parkingInfo": "Free parking in campus lots off Crenshaw Blvd and Manhattan Beach Blvd.",
    "transitInfo": "Metro Bus 210 along Crenshaw Blvd; South Bay Shuttle from Metro C Line Crenshaw station."
  },
  {
    "id": "smc-corsair-field",
    "name": "SMC Corsair Field & Pavilion",
    "address": "1744 Pearl St, Santa Monica, CA 90405",
    "neighborhood": "westside",
    "lat": 34.0137,
    "lng": -118.4696,
    "capacity": 2000,
    "parkingInfo": "Free campus parking in lots on Pico Blvd; metered street parking on Pearl St.",
    "transitInfo": "Metro E Line to 17th St/SMC station (adjacent); Big Blue Bus lines 7 and Rapid 7."
  },
  {
    "id": "mt-sac-hilmer-lodge",
    "name": "Mt. SAC Hilmer Lodge Stadium",
    "address": "1100 N Grand Ave, Walnut, CA 91789",
    "neighborhood": "san-gabriel-valley",
    "lat": 34.0489,
    "lng": -117.8456,
    "capacity": 12000,
    "parkingInfo": "Free parking in campus lots off Grand Ave and Temple Ave.",
    "transitInfo": "Foothill Transit Line 286 to Mt. SAC campus; limited transit, driving recommended."
  },
  {
    "id": "cerritos-college-stadium",
    "name": "Cerritos College Falcon Stadium",
    "address": "11110 Alondra Blvd, Norwalk, CA 90650",
    "neighborhood": "gateway-cities",
    "lat": 33.8868,
    "lng": -118.0879,
    "capacity": 4000,
    "parkingInfo": "Free parking in campus lots off Studebaker Rd and Alondra Blvd.",
    "transitInfo": "Metro Bus 460 on Norwalk Blvd; Norwalk Transit line 7 along Alondra Blvd."
  },
  {
    "id": "pcc-robinson-stadium",
    "name": "PCC Robinson Stadium & Hutto-Patterson Gymnasium",
    "address": "1570 E Colorado Blvd, Pasadena, CA 91106",
    "neighborhood": "san-gabriel-valley",
    "lat": 34.1422,
    "lng": -118.1198,
    "capacity": 3500,
    "parkingInfo": "Free campus parking off Hill Ave; street parking on Colorado Blvd.",
    "transitInfo": "Metro A Line to Lake station, then Pasadena Transit 10 to campus."
  },
  {
    "id": "cal-poly-pomona-kellogg-gym",
    "name": "Cal Poly Pomona Kellogg Gym",
    "address": "3801 W Temple Ave, Pomona, CA 91768",
    "neighborhood": "san-gabriel-valley",
    "lat": 34.0565,
    "lng": -117.8226,
    "capacity": 5000,
    "parkingInfo": "Campus parking $5-$10; Lot F closest to athletics complex.",
    "transitInfo": "Foothill Transit 194/291 to campus; Metrolink to Pomona station, then Foothill Transit."
  },
  {
    "id": "csuf-athletics",
    "name": "CSUF Titan Athletics Complex",
    "address": "800 N State College Blvd, Fullerton, CA 92831",
    "neighborhood": "san-gabriel-valley",
    "lat": 33.8817,
    "lng": -117.8854,
    "capacity": 4000,
    "parkingInfo": "Campus parking structures $5-$10; Lot A near Anderson Field; Lot G near Titan Gym.",
    "transitInfo": "OCTA Bus 43 or 47 to State College Blvd; Metrolink to Fullerton station, then OCTA 43."
  },
  {
    "id": "pomona-pitzer-athletics",
    "name": "Pomona-Pitzer Athletics Complex",
    "address": "610 N College Ave, Claremont, CA 91711",
    "neighborhood": "san-gabriel-valley",
    "lat": 34.0967,
    "lng": -117.7110,
    "capacity": 2500,
    "parkingInfo": "Free parking in Claremont Colleges lots on weekends; metered street parking on College Ave.",
    "transitInfo": "Metrolink San Bernardino Line to Claremont station, then walk or campus shuttle north."
  },
  {
    "id": "calstate-la-athletics",
    "name": "Cal State LA Golden Eagle Arena",
    "address": "5151 State University Dr, Los Angeles, CA 90032",
    "neighborhood": "east-la",
    "lat": 34.0673,
    "lng": -118.1685,
    "capacity": 2500,
    "parkingInfo": "Campus Lot 2 and Lot 5 ($5-$8); street parking on State University Dr after 6 PM.",
    "transitInfo": "Metro B Line to Cal State LA station (on campus); Metro Bus 70 on Valley Blvd."
  },
  {
    "id": "occidental-athletics",
    "name": "Occidental College Athletic Fields",
    "address": "1600 Campus Rd, Los Angeles, CA 90041",
    "neighborhood": "east-la",
    "lat": 34.1239,
    "lng": -118.2073,
    "capacity": 2000,
    "parkingInfo": "Free campus parking on weekends in Lot 1 and Lot 5; street parking on Campus Rd.",
    "transitInfo": "Metro Bus 81 along York Blvd; Metro B/D Line to Highland Park station, then bus north."
  },
  {
    "id": "rio-hondo-athletics",
    "name": "Rio Hondo College Athletic Complex",
    "address": "3600 Workman Mill Rd, Whittier, CA 90601",
    "neighborhood": "san-gabriel-valley",
    "lat": 33.9744,
    "lng": -117.9817,
    "capacity": 3000,
    "parkingInfo": "Free campus parking in Lots 1-4 off Workman Mill Rd.",
    "transitInfo": "Metro Bus 484 along Workman Mill Rd; limited transit access, driving recommended."
  },
  {
    "id": "citrus-athletics",
    "name": "Citrus College Athletic Complex",
    "address": "1000 W Foothill Blvd, Glendora, CA 91741",
    "neighborhood": "san-gabriel-valley",
    "lat": 34.1044,
    "lng": -117.8652,
    "capacity": 3500,
    "parkingInfo": "Free parking in campus lots off Foothill Blvd; Lot 1 is closest to the stadium.",
    "transitInfo": "Foothill Transit Line 187 along Foothill Blvd; driving recommended for evening events."
  },
  {
    "id": "west-la-athletics",
    "name": "West LA College Athletic Complex",
    "address": "9000 Overland Ave, Culver City, CA 90230",
    "neighborhood": "westside",
    "lat": 34.0268,
    "lng": -118.4012,
    "capacity": 1500,
    "parkingInfo": "Free campus parking in main lot off Overland Ave.",
    "transitInfo": "Metro Bus 12 or Culver City Bus 6 along Overland Ave; Metro E Line to Culver City station, then bus north."
  },
  {
    "id": "compton-athletics",
    "name": "Compton College Athletic Complex",
    "address": "1111 E Artesia Blvd, Compton, CA 90221",
    "neighborhood": "south-la",
    "lat": 33.8894,
    "lng": -118.2194,
    "capacity": 2000,
    "parkingInfo": "Free campus parking in lots off Artesia Blvd.",
    "transitInfo": "Metro Bus 51 along Artesia Blvd; Metro A Line to Compton station, then bus east."
  },
  {
    "id": "harbor-athletics",
    "name": "Harbor College Athletic Complex",
    "address": "1111 Figueroa Place, Wilmington, CA 90744",
    "neighborhood": "south-bay",
    "lat": 33.7879,
    "lng": -118.2867,
    "capacity": 2000,
    "parkingInfo": "Free campus parking in main lot off Figueroa Place.",
    "transitInfo": "Metro Bus 205 along Pacific Coast Hwy; limited transit, driving recommended."
  },
  {
    "id": "lapc-athletics",
    "name": "LA Pierce College Athletic Complex",
    "address": "6201 Winnetka Ave, Woodland Hills, CA 91371",
    "neighborhood": "san-fernando-valley",
    "lat": 34.1924,
    "lng": -118.5752,
    "capacity": 5000,
    "parkingInfo": "Free campus parking in Lots 9 and 11 off Winnetka Ave.",
    "transitInfo": "Metro Bus 164 or 161 along Winnetka Ave; limited transit access."
  },
  {
    "id": "glendale-cc-athletics",
    "name": "Glendale Community College Athletic Complex",
    "address": "1500 N Verdugo Rd, Glendale, CA 91208",
    "neighborhood": "san-fernando-valley",
    "lat": 34.1731,
    "lng": -118.2548,
    "capacity": 3000,
    "parkingInfo": "Campus parking Lot 1 and Lot 3 ($3-$5); free street parking on Verdugo Rd evenings.",
    "transitInfo": "Metro Bus 90 or Glendale Beeline Bus 1 along Verdugo Rd."
  }
]
